timestamp,timestamp_sample,lat,lon,alt,alt_ellipsoid,delta_alt,delta_terrain,eph,epv,terrain_alt,lat_lon_valid,alt_valid,lat_lon_reset_counter,alt_reset_counter,terrain_reset_counter,terrain_alt_valid,dead_reckoning
1780397225.8016,1780397225.80124,52.5152722877977,13.3233627720514,24.594088,69.370125,33.65545,33.65545,0.5196148,0.3578364,24.582317,1,1,7,2,2,0,0
1780397225.81172,1780397225.81126,52.5152722893188,13.3233627709551,24.594336,69.37038,33.65545,33.65545,0.5199601,0.35820708,24.582392,1,1,7,2,2,0,0
1780397226.00238,1780397226.00173,52.5152722858379,13.3233627154587,24.602266,69.3783,33.65545,33.65545,0.5213824,0.35862324,24.594786,1,1,7,2,2,0,0
1780397226.21272,1780397226.21225,52.5152722694359,13.3233627008541,24.610031,69.38607,33.65545,33.65545,0.52346027,0.35790727,24.59861,1,1,7,2,2,0,0
1780397226.40816,1780397226.40271,52.5152722688111,13.3233626994299,24.615553,69.391594,33.65545,33.65545,0.5248088,0.3583036,24.60141,1,1,7,2,2,0,0
1780397226.60867,1780397226.6032,52.5152722389824,13.3233626961532,24.619177,69.39522,33.65545,33.65545,0.52643794,0.35904437,24.60141,1,1,7,2,2,0,0
1780397226.80904,1780397226.80369,52.5152721552573,13.3233626294448,24.624216,69.40025,33.65545,33.65545,0.5279962,0.35976785,24.60141,1,1,7,2,2,0,0
1780397227.00953,1780397227.00419,52.5152717057972,13.3233623440226,24.629816,69.40585,33.65545,33.65545,0.5294684,0.35860205,24.60141,1,1,7,2,2,0,0
1780397227.21002,1780397227.20468,52.5152706112516,13.323361664287,24.627699,69.40374,33.65545,33.65545,0.53085065,0.3592981,24.60141,1,1,7,2,2,0,0
1780397227.41052,1780397227.40517,52.515268984248,13.3233603151336,24.63858,69.41462,33.65545,33.65545,0.5321893,0.35998523,24.60141,1,1,7,2,2,0,0
1780397227.61105,1780397227.60566,52.5152671093715,13.3233586651688,24.631199,69.40724,33.65545,33.65545,0.5334893,0.35878766,24.60141,1,1,7,2,2,0,0
1780397227.81155,1780397227.80615,52.5152655499333,13.3233570054989,24.62105,69.39709,33.65545,33.65545,0.5347624,0.35945833,24.60141,1,1,7,2,2,0,0
1780397228.01206,1780397228.00664,52.5152645154691,13.3233556678425,24.620676,69.39671,33.65545,33.65545,0.53601146,0.3601254,24.60141,1,1,7,2,2,0,0
1780397228.20248,1780397228.19711,52.5152635143088,13.3233545214592,24.613445,69.38948,33.65545,33.65545,0.53690886,0.3604224,24.60141,1,1,7,2,2,0,0
1780397228.40317,1780397228.3976,52.5152623961142,13.3233532890034,24.632372,69.40841,33.65545,33.65545,0.53811264,0.35920078,24.60141,1,1,7,2,2,0,0
1780397228.60348,1780397228.59809,52.5152612255104,13.3233519331842,24.647766,69.423805,33.65545,33.65545,0.53929484,0.35985222,24.60141,1,1,7,2,2,0,0
1780397228.80404,1780397228.79858,52.5152603114014,13.3233507657459,24.64843,69.42447,33.65545,33.65545,0.5404557,0.36049768,24.60141,1,1,7,2,2,0,0
1780397229.00464,1780397228.99907,52.5152594128336,13.3233497969921,24.65425,69.43029,33.65545,33.65545,0.5415957,0.35925847,24.60141,1,1,7,2,2,0,0
1780397229.20493,1780397229.19957,52.5152586948068,13.3233490977364,24.649914,69.42595,33.65545,33.65545,0.54271543,0.35989827,24.60141,1,1,7,2,2,0,0
1780397229.40545,1780397229.40006,52.5152578244724,13.3233483639805,24.642254,69.41829,33.65545,33.65545,0.5437969,0.3605296,24.60141,1,1,7,2,2,0,0
1780397229.60616,1780397229.60055,52.5152569347024,13.3233474595386,24.643663,69.4197,33.65545,33.65545,0.5448142,0.35925403,24.60141,1,1,7,2,2,0,0
1780397229.80645,1780397229.80104,52.5152559692671,13.3233464005545,24.654848,69.430885,33.65545,33.65545,0.546041,0.36003098,24.60141,1,1,7,2,2,0,0
1780397230.00688,1780397230.00153,52.5152547732133,13.3233452873377,24.669464,69.4455,33.65545,33.65545,0.5470747,0.360656,24.60141,1,1,7,2,2,0,0
1780397230.20737,1780397230.20202,52.5152535110764,13.3233441744945,24.677267,69.45331,33.65545,33.65545,0.5481756,0.35942987,24.60141,1,1,7,2,2,0,0
1780397230.40788,1780397230.40251,52.5152521990775,13.3233431288079,24.696663,69.4727,33.65545,33.65545,0.54932564,0.36009562,24.60141,1,1,7,2,2,0,0
1780397230.60835,1780397230.60301,52.5152509381169,13.3233422638316,24.706429,69.48247,33.65545,33.65545,0.5504938,0.36074957,24.60141,1,1,7,2,2,0,0
1780397230.80891,1780397230.8035,52.5152497257648,13.3233413460222,24.708145,69.48419,33.65545,33.65545,0.55164564,0.35949865,24.60141,1,1,7,2,2,0,0
1780397231.00935,1780397231.00399,52.5152484661137,13.3233403672821,24.700275,69.47632,33.65545,33.65545,0.5528075,0.36019576,24.60141,1,1,7,2,2,0,0
1780397231.20986,1780397231.20448,52.515247332404,13.3233394081215,24.705084,69.48113,33.65545,33.65545,0.55371994,0.36078772,24.60141,1,1,7,2,2,0,0
1780397231.41035,1780397231.40497,52.5152461375879,13.3233383920343,24.712608,69.48866,33.65545,33.65545,0.554616,0.35950044,24.60141,1,1,7,2,2,0,0
1780397231.61081,1780397231.60546,52.5152448532053,13.3233374859416,24.701963,69.47802,33.65545,33.65545,0.5555447,0.36012903,24.60141,1,1,7,2,2,0,0
1780397231.8113,1780397231.80595,52.5152436199673,13.3233365814531,24.696505,69.47256,33.65545,33.65545,0.5565118,0.3607784,24.60141,1,1,7,2,2,0,0
1780397232.01183,1780397232.00644,52.5152424133025,13.3233356417302,24.69671,69.47277,33.65545,33.65545,0.557432,0.3614099,24.60141,1,1,7,2,2,0,0
1780397232.20979,1780397232.20944,52.5152411299172,13.3233347298882,24.703173,69.47923,33.65545,33.65545,0.55823594,0.36010566,24.60141,1,1,7,2,2,0,0
1780397232.41032,1780397232.40993,52.5152398521031,13.3233337740411,24.704977,69.48104,33.65545,33.65545,0.55902994,0.36072823,24.60141,1,1,7,2,2,0,0
1780397232.61077,1780397232.61042,52.5152385995097,13.3233326645953,24.712248,69.48832,33.65545,33.65545,0.5597415,0.36129314,24.60141,1,1,7,2,2,0,0
1780397232.80635,1780397232.80089,52.5152374895203,13.3233316484736,24.734167,69.51024,33.65545,33.65545,0.5601187,0.35960454,24.60141,1,1,7,2,2,0,0
1780397233.0068,1780397233.00138,52.5152364199949,13.3233305443409,24.737537,69.51361,33.65545,33.65545,0.5608149,0.36018357,24.60141,1,1,7,2,2,0,0
1780397233.20722,1780397233.20187,52.5152353138495,13.3233293306727,24.726965,69.50304,33.65545,33.65545,0.5615271,0.3607875,24.60141,1,1,7,2,2,0,0
1780397233.40776,1780397233.40237,52.5152342655441,13.3233282085201,24.711275,69.48734,33.65545,33.65545,0.56224245,0.35951382,24.60141,1,1,7,2,2,0,0
1780397233.6082,1780397233.60286,52.5152332013376,13.3233271546327,24.712666,69.48874,33.65545,33.65545,0.5630542,0.3602145,24.60141,1,1,7,2,2,0,0
1780397233.8087,1780397233.80335,52.5152320606853,13.3233259389951,24.71564,69.491714,33.65545,33.65545,0.56470704,0.3615471,24.60141,1,1,7,2,2,0,0
1780397234.00674,1780397234.00635,52.515230960591,13.3233248117239,24.710697,69.48677,33.65545,33.65545,0.5668612,0.36128986,24.60141,1,1,7,2,2,0,0
1780397234.2073,1780397234.20684,52.5152298961513,13.3233237008422,24.711136,69.48721,33.65545,33.65545,0.5698954,0.36346638,24.60141,1,1,7,2,2,0,0
1780397234.4102,1780397234.40733,52.5152287487897,13.3233224643904,24.715267,69.49135,33.65545,33.65545,0.5734099,0.36580482,24.60141,1,1,7,2,2,0,0
1780397234.61067,1780397234.60782,52.5152277508494,13.3233214579922,24.720007,69.49609,33.65545,33.65545,0.57772595,0.36844882,24.60141,1,1,7,2,2,0,0
1780397234.81115,1780397234.80831,52.5152267284321,13.3233205662559,24.722088,69.498184,33.65545,33.65545,0.58346653,0.3695389,24.60141,1,1,7,2,2,0,0
1780397235.01165,1780397235.0088,52.5152257448595,13.3233198581535,24.718782,69.49488,33.65545,33.65545,0.58999556,0.3727849,24.60141,1,1,7,2,2,0,0
1780397235.21219,1780397235.2118,52.5152247613723,13.3233193235021,24.717337,69.49344,33.65545,33.65545,0.5979972,0.37636432,24.60141,1,1,7,2,2,0,0
1780397235.40261,1780397235.40227,52.515223459545,13.3233182701569,24.714397,69.49049,33.65545,33.65545,0.6062849,0.3774433,24.60141,1,1,7,2,2,0,0
1780397235.6031,1780397235.60276,52.5152219394722,13.3233169811396,24.716284,69.49239,33.65545,33.65545,0.61555606,0.381023,24.60141,1,1,7,2,2,0,0
1780397235.80364,1780397235.80325,52.5152204685546,13.3233159129296,24.722343,69.49845,33.65545,33.65545,0.625405,0.38465658,24.60141,1,1,7,2,2,0,0
1780397236.00419,1780397236.00374,52.5152189347103,13.3233148649085,24.73963,69.51574,33.65545,33.65545,0.63339096,0.3856247,24.60141,1,1,7,2,2,0,0
1780397236.20461,1780397236.20423,52.5152175786927,13.3233138835684,24.749084,69.5252,33.65545,33.65545,0.63856435,0.38846362,24.60141,1,1,7,2,2,0,0
1780397236.40507,1780397236.40472,52.515216228015,13.3233126748551,24.743427,69.51955,33.65545,33.65545,0.6430955,0.39123094,24.60141,1,1,7,2,2,0,0
1780397236.60561,1780397236.60522,52.5152148081994,13.3233112768235,24.749626,69.52574,33.65545,33.65545,0.6512961,0.39222348,24.60141,1,1,7,2,2,0,0
1780397236.80605,1780397236.80571,52.5152133161602,13.3233101116821,24.75454,69.53066,33.65545,33.65545,0.6582925,0.39545524,24.60141,1,1,7,2,2,0,0
1780397237.00656,1780397237.0062,52.5152117603435,13.323309038651,24.758677,69.5348,33.65545,33.65545,0.66669434,0.39894167,24.60141,1,1,7,2,2,0,0
1780397237.20707,1780397237.20669,52.5152103258365,13.3233081105043,24.757633,69.53375,33.65545,33.65545,0.6734845,0.39961603,24.60141,1,1,7,2,2,0,0
1780397237.40765,1780397237.40718,52.5152088243173,13.3233073147855,24.752626,69.52875,33.65545,33.65545,0.6821823,0.40320483,24.60141,1,1,7,2,2,0,0
1780397237.60805,1780397237.60767,52.5152070773883,13.3233063943784,24.754284,69.53041,33.65545,33.65545,0.6861755,0.40620485,24.60141,1,1,7,2,2,0,0
1780397237.80851,1780397237.80816,52.5152052816715,13.3233056813533,24.75337,69.529495,33.65545,33.65545,0.68667895,0.4088098,24.60141,1,1,7,2,2,0,0
1780397238.009,1780397238.00866,52.5152034126818,13.3233050161335,24.75147,69.527596,33.65545,33.65545,0.6877853,0.40879148,24.60141,1,1,7,2,2,0,0
1780397238.2095,1780397238.20915,52.5152014693756,13.3233046628228,24.747349,69.523476,33.65545,33.65545,0.6910215,0.4118424,24.60141,1,1,7,2,2,0,0
1780397238.41004,1780397238.40964,52.5151997273472,13.3233044713104,24.755178,69.5313,33.65545,33.65545,0.6949142,0.41497934,24.60141,1,1,7,2,2,0,0
1780397238.61047,1780397238.61013,52.5151979039718,13.3233042563386,24.76066,69.53679,33.65545,33.65545,0.70181084,0.41558957,24.60141,1,1,7,2,2,0,0
1780397238.81096,1780397238.81062,52.5151959105531,13.3233040245247,24.76283,69.53896,33.65545,33.65545,0.71035564,0.41922167,24.60141,1,1,7,2,2,0,0
1780397239.01146,1780397239.01111,52.5151938892445,13.3233039248655,24.774544,69.550674,33.65545,33.65545,0.7166247,0.4225298,24.60141,1,1,7,2,2,0,0
1780397239.21198,1780397239.2116,52.5151918101662,13.3233036086362,24.788092,69.564224,33.65545,33.65545,0.72302544,0.42271912,24.60141,1,1,7,2,2,0,0
1780397239.41245,1780397239.4121,52.5151897463396,13.323303270662,24.792217,69.568344,33.65545,33.65545,0.72934395,0.42591017,24.60141,1,1,7,2,2,0,0
1780397239.6029,1780397239.60256,52.5151879412614,13.3233032222825,24.794018,69.57015,33.65545,33.65545,0.732519,0.42830312,24.60141,1,1,7,2,2,0,0
1780397239.80339,1780397239.80305,52.5151862770458,13.3233032006637,24.801687,69.57783,33.65545,33.65545,0.73111826,0.4306759,24.60141,1,1,7,2,2,0,0
1780397240.00392,1780397240.00355,52.5151848652796,13.3233026109344,24.81097,69.58711,33.65545,33.65545,0.725011,0.42922133,24.60141,1,1,7,2,2,0,0
1780397240.20442,1780397240.20404,52.5151833467994,13.3233017119529,24.824532,69.60068,33.65545,33.65545,0.7183244,0.4307255,24.60141,1,1,7,2,2,0,0
1780397240.40488,1780397240.40453,52.5151815361558,13.3233005054452,24.831131,69.60728,33.65545,33.65545,0.71133673,0.43199837,24.60141,1,1,7,2,2,0,0
1780397240.60541,1780397240.60502,52.5151800958128,13.3232995855288,24.844866,69.62102,33.65545,33.65545,0.7008707,0.42930004,24.60141,1,1,7,2,2,0,0
1780397240.80589,1780397240.80551,52.5151787499105,13.3232987099367,24.850779,69.62694,33.65545,33.65545,0.6900627,0.42938164,24.60141,1,1,7,2,2,0,0
1780397241.00636,1780397241.006,52.515177324661,13.323297861428,24.849312,69.62547,33.65545,33.65545,0.6845808,0.43013853,24.60141,1,1,7,2,2,0,0
1780397241.20684,1780397241.2065,52.5151759671016,13.3232967948472,24.853731,69.6299,33.65545,33.65545,0.6817001,0.42808616,24.60141,1,1,7,2,2,0,0
1780397241.40733,1780397241.40699,52.5151745844031,13.3232955323013,24.868324,69.64449,33.65545,33.65545,0.682604,0.42992908,24.60141,1,1,7,2,2,0,0
1780397241.60788,1780397241.60748,52.5151732659164,13.3232948996861,24.885628,69.661804,33.65545,33.65545,0.67811567,0.43057764,24.60141,1,1,7,2,2,0,0
1780397241.80831,1780397241.80797,52.5151724429808,13.3232941124126,24.921743,69.69792,33.65545,33.65545,0.67439306,0.4280304,24.60141,1,1,7,2,2,0,0
1780397242.0088,1780397242.00846,52.5151715224515,13.3232928700445,24.948383,69.72456,33.65545,33.65545,0.6740792,0.42939657,24.60141,1,1,7,2,2,0,0
1780397242.20929,1780397242.20895,52.5151703212382,13.3232914806927,24.97844,69.75462,33.65545,33.65545,0.6762461,0.4313476,24.60141,1,1,7,2,2,0,0
1780397242.40985,1780397242.40944,52.5151689757878,13.3232898497915,25.004663,69.78085,33.65545,33.65545,0.679846,0.43035728,24.60141,1,1,7,2,2,0,0
1780397242.61028,1780397242.60994,52.5151678278399,13.3232885934063,25.023294,69.799484,33.65545,33.65545,0.6863233,0.43317193,24.60141,1,1,7,2,2,0,0
1780397242.81079,1780397242.81043,52.5151667046665,13.3232870676902,25.041471,69.817665,33.65545,33.65545,0.6925361,0.43592387,24.60141,1,1,7,2,2,0,0
1780397243.01131,1780397243.01092,52.5151655269401,13.3232851539209,25.054268,69.83046,33.65545,33.65545,0.69896483,0.43530217,24.60141,1,1,7,2,2,0,0
1780397243.21175,1780397243.21141,52.5151643620193,13.3232832894714,25.07125,69.84745,33.65545,33.65545,0.6977889,0.4367745,24.60141,1,1,7,2,2,0,0
1780397243.41224,1780397243.4119,52.515163285334,13.3232816382259,25.095613,69.87181,33.65545,33.65545,0.698926,0.43856278,24.60141,1,1,7,2,2,0,0
1780397243.60271,1780397243.60237,52.5151623360875,13.3232800387329,25.11713,69.89333,33.65545,33.65545,0.70471746,0.44062957,24.60141,1,1,7,2,2,0,0
1780397243.80326,1780397243.80286,52.5151613688427,13.3232782553191,25.142523,69.918724,33.65545,33.65545,0.71144503,0.43973058,24.60141,1,1,7,2,2,0,0
1780397244.00377,1780397244.00335,52.515160377713,13.3232770276557,25.15383,69.93004,33.65545,33.65545,0.7175553,0.4421438,24.60141,1,1,7,2,2,0,0
1780397244.20419,1780397244.20384,52.5151593526338,13.3232755968029,25.165064,69.94128,33.65545,33.65545,0.7236565,0.44452935,24.60141,1,1,7,2,2,0,0
1780397244.40469,1780397244.40433,52.5151583058871,13.3232741700254,25.180693,69.95692,33.65545,33.65545,0.7334185,0.44378164,24.60141,1,1,7,2,2,0,0
1780397244.60517,1780397244.60483,52.5151570081377,13.3232723685349,25.199179,69.97541,33.65545,33.65545,0.7440644,0.44661,24.60141,1,1,7,2,2,0,0
1780397244.80573,1780397244.80532,52.5151555146299,13.3232703894952,25.218029,69.99426,33.65545,33.65545,0.75618345,0.44955105,24.60141,1,1,7,2,2,0,0
1780397245.00618,1780397245.00581,52.5151542720597,13.3232687318931,25.24229,70.01853,33.65545,33.65545,0.76914513,0.44883108,24.60141,1,1,7,2,2,0,0
1780397245.20665,1780397245.2063,52.515153005527,13.3232667546646,25.269522,70.04577,33.65545,33.65545,0.7806813,0.45161417,24.60141,1,1,7,2,2,0,0
1780397245.40715,1780397245.40679,52.5151517034736,13.323264644706,25.293184,70.06943,33.65545,33.65545,0.78917706,0.45416066,24.60141,1,1,7,2,2,0,0
1780397245.60775,1780397245.60728,52.515150281167,13.3232623446008,25.313478,70.08972,33.65545,33.65545,0.79384464,0.45262796,24.60141,1,1,7,2,2,0,0
1780397245.80812,1780397245.80778,52.515148779516,13.3232599698802,25.332125,70.10837,33.65545,33.65545,0.8007743,0.45501727,24.60141,1,1,7,2,2,0,0
1780397246.00863,1780397246.00827,52.5151473983435,13.3232576954809,25.358723,70.13497,33.65545,33.65545,0.80865526,0.4574687,24.60141,1,1,7,2,2,0,0
1780397246.2091,1780397246.20876,52.515145892777,13.3232549988602,25.388386,70.16464,33.65545,33.65545,0.81519455,0.4598208,24.60141,1,1,7,2,2,0,0
1780397246.40959,1780397246.40925,52.5151446551289,13.3232530147812,25.415272,70.19153,33.65545,33.65545,0.8224284,0.458297,24.60141,1,1,7,2,2,0,0
1780397246.61008,1780397246.60974,52.515143561537,13.3232511577208,25.440435,70.21669,33.65545,33.65545,0.8297067,0.4606622,24.60141,1,1,7,2,2,0,0
1780397246.81058,1780397246.81023,52.515142561137,13.3232493803423,25.460407,70.236664,33.65545,33.65545,0.83454275,0.46286103,24.60141,1,1,7,2,2,0,0
1780397247.00132,1780397247.0007,52.5151416907188,13.323247901369,25.479591,70.25585,33.65545,33.65545,0.8350608,0.4602659,24.60141,1,1,7,2,2,0,0
1780397247.21159,1780397247.21122,52.5151407313552,13.3232462148869,25.50476,70.28102,33.65545,33.65545,0.8463063,0.46334583,24.60141,1,1,7,2,2,0,0
1780397247.41205,1780397247.41171,52.5151396552357,13.3232443839893,25.526985,70.30325,33.65545,33.65545,0.8534213,0.46564165,24.60141,1,1,7,2,2,0,0
1780397247.61254,1780397247.6122,52.5151387010951,13.3232428660603,25.554934,70.3312,33.65545,33.65545,0.85290307,0.46341398,24.60141,1,1,7,2,2,0,0
1780397247.80301,1780397247.80267,52.5151375595082,13.3232412010598,25.576603,70.352875,33.65545,33.65545,0.8497059,0.46449292,24.60141,1,1,7,2,2,0,0
1780397248.00353,1780397248.00316,52.5151361832338,13.3232392488564,25.60488,70.38116,33.65545,33.65545,0.8520287,0.46641758,24.60141,1,1,7,2,2,0,0
1780397248.204,1780397248.20365,52.5151349183015,13.323238043747,25.631731,70.408005,33.65545,33.65545,0.85050666,0.4680791,24.60141,1,1,7,2,2,0,0
1780397248.40448,1780397248.40414,52.515133439215,13.3232365493744,25.656698,70.432976,33.65545,33.65545,0.8543686,0.46595153,24.60141,1,1,7,2,2,0,0
1780397248.61003,1780397248.60463,52.5151319311293,13.3232348595331,25.68008,70.45637,33.65545,33.65545,0.8568768,0.46782067,24.60141,1,1,7,2,2,0,0
1780397248.81054,1780397248.80512,52.515130349718,13.3232331868022,25.70351,70.4798,33.65545,33.65545,0.8577705,0.46957976,24.60141,1,1,7,2,2,0,0
1780397249.01102,1780397249.00562,52.5151289830321,13.3232318352235,25.732815,70.50911,33.65545,33.65545,0.8666811,0.46769214,24.60141,1,1,7,2,2,0,0
1780397249.21158,1780397249.20611,52.5151275949603,13.3232303593215,25.766024,70.54232,33.65545,33.65545,0.87616354,0.4699688,24.60141,1,1,7,2,2,0,0
1780397249.40215,1780397249.39657,52.5151262112342,13.3232286801858,25.791529,70.567825,33.65545,33.65545,0.8803577,0.4713977,24.60141,1,1,7,2,2,0,0
1780397249.60249,1780397249.59707,52.5151248293301,13.323227251389,25.80941,70.58571,33.65545,33.65545,0.88749206,0.4693016,24.60141,1,1,7,2,2,0,0
1780397249.80294,1780397249.79756,52.5151233666612,13.3232259299794,25.819736,70.59604,33.65545,33.65545,0.8913827,0.47124088,24.60141,1,1,7,2,2,0,0
1780397250.01345,1780397250.00807,52.5151218234891,13.3232247591572,25.838156,70.614456,33.65545,33.65545,0.89379734,0.4736316,24.60141,1,1,7,2,2,0,0
1780397250.2091,1780397250.20857,52.5151202315354,13.3232234751349,25.858356,70.63466,33.65545,33.65545,0.88602513,0.47059616,24.60141,1,1,7,2,2,0,0
1780397250.40438,1780397250.39903,52.5151187257556,13.3232220191261,25.87491,70.65121,33.65545,33.65545,0.8844497,0.47158763,24.60141,1,1,7,2,2,0,0
1780397250.60505,1780397250.59952,52.5151171177489,13.3232208171142,25.888592,70.66489,33.65545,33.65545,0.88354075,0.4731409,24.60141,1,1,7,2,2,0,0
1780397250.80536,1780397250.80002,52.5151154825931,13.3232199355159,25.900457,70.67676,33.65545,33.65545,0.8827801,0.4746875,24.60141,1,1,7,2,2,0,0
1780397251.00585,1780397251.00051,52.5151136160543,13.3232187341442,25.907007,70.68331,33.65545,33.65545,0.88094866,0.47186586,24.60141,1,1,7,2,2,0,0
1780397251.20662,1780397251.201,52.5151118612765,13.3232181487203,25.911085,70.68739,33.65545,33.65545,0.8815812,0.47345412,24.60141,1,1,7,2,2,0,0
1780397251.40684,1780397251.40149,52.5151100733828,13.3232176702637,25.906116,70.68242,33.65545,33.65545,0.8899227,0.47553232,24.60141,1,1,7,2,2,0,0
1780397251.60733,1780397251.60198,52.5151082693974,13.3232169822425,25.895933,70.67224,33.65545,33.65545,0.898331,0.47330603,24.60141,1,1,7,2,2,0,0
1780397251.80785,1780397251.80247,52.515106520871,13.3232166594284,25.890638,70.66695,33.65545,33.65545,0.904941,0.47526652,24.60141,1,1,7,2,2,0,0
1780397252.00831,1780397252.00297,52.5151047308431,13.323216727623,25.886724,70.66303,33.65545,33.65545,0.90969753,0.47713614,24.60141,1,1,7,2,2,0,0
1780397252.2088,1780397252.20346,52.5151030769822,13.3232168469335,25.884577,70.66089,33.65545,33.65545,0.91561335,0.47470978,24.60141,1,1,7,2,2,0,0
1780397252.40934,1780397252.40395,52.5151013977462,13.3232170844037,25.895885,70.672195,33.65545,33.65545,0.9209431,0.47660306,24.60141,1,1,7,2,2,0,0
1780397252.60979,1780397252.60444,52.5150997773723,13.3232175907266,25.913961,70.690285,33.65545,33.65545,0.9213859,0.47822383,24.60141,1,1,7,2,2,0,0
1780397252.81028,1780397252.80493,52.5150982360817,13.3232175253526,25.933376,70.7097,33.65545,33.65545,0.92587864,0.47575578,24.60141,1,1,7,2,2,0,0
1780397253.01077,1780397253.00542,52.5150967037952,13.3232171632236,25.941833,70.71817,33.65545,33.65545,0.9424017,0.4785582,24.60141,1,1,7,2,2,0,0
1780397253.2113,1780397253.20592,52.5150953395052,13.3232168098432,25.947874,70.724205,33.65545,33.65545,0.9615373,0.48150077,24.60141,1,1,7,2,2,0,0
1780397253.41193,1780397253.40641,52.5150938247144,13.3232162282945,25.949207,70.72554,33.65545,33.65545,0.98026055,0.4798301,24.60141,1,1,7,2,2,0,0
1780397253.6025,1780397253.59687,52.5150923047127,13.3232156823619,25.949427,70.72576,33.65545,33.65545,0.9964539,0.48174697,24.60141,1,1,7,2,2,0,0
1780397253.80272,1780397253.79737,52.5150907397607,13.3232154665087,25.95334,70.72968,33.65545,33.65545,1.0150123,0.4841922,24.60141,1,1,7,2,2,0,0
1780397254.00321,1780397253.99786,52.5150891037455,13.3232156943993,25.960157,70.7365,33.65545,33.65545,1.0391313,0.486853,24.60141,1,1,7,2,2,0,0
1780397254.21376,1780397254.20837,52.5150873499146,13.323215666799,25.973337,70.74968,33.65545,33.65545,1.0759263,0.48555264,24.60141,1,1,7,2,2,0,0
1780397254.40421,1780397254.39884,52.5150858496036,13.3232156316381,25.994993,70.77134,33.65545,33.65545,1.1108412,0.48756957,24.60141,1,1,7,2,2,0,0
1780397254.60474,1780397254.59933,52.5150841739627,13.3232153248111,26.013037,70.78938,33.65545,33.65545,1.1546589,0.49039024,24.60141,1,1,7,2,2,0,0
1780397254.80543,1780397254.79983,52.5150824474658,13.3232148881639,26.030027,70.80637,33.65545,33.65545,1.2013866,0.4884622,24.60141,1,1,7,2,2,0,0
1780397255.00575,1780397255.00032,52.5150807447903,13.3232147105169,26.051414,70.82776,33.65545,33.65545,1.2515945,0.49124315,24.60141,1,1,7,2,2,0,0
1780397255.20617,1780397255.20081,52.5150790382955,13.3232144673788,26.073214,70.849556,33.65545,33.65545,1.2834246,0.49358115,24.60141,1,1,7,2,2,0,0
1780397255.40688,1780397255.4013,52.5150773326197,13.3232135011232,26.107853,70.8842,33.65545,33.65545,1.2890924,0.49052295,24.60141,1,1,7,2,2,0,0
1780397255.6072,1780397255.60179,52.5150757291384,13.3232116738348,26.140682,70.91702,33.65545,33.65545,1.2815677,0.49191988,24.60141,1,1,7,2,2,0,0
1780397255.80769,1780397255.80228,52.5150743866666,13.3232090814406,26.168041,70.94438,33.65545,33.65545,1.2579844,0.49276534,24.60141,1,1,7,2,2,0,0
1780397256.0082,1780397256.00278,52.5150730226858,13.3232062459423,26.180017,70.95637,33.65545,33.65545,1.2398343,0.48875856,24.60141,1,1,7,2,2,0,0
1780397256.20866,1780397256.20327,52.5150713634592,13.3232037018799,26.196333,70.97269,33.65545,33.65545,1.2485355,0.49031115,24.60141,1,1,7,2,2,0,0
1780397256.40915,1780397256.40376,52.5150694260757,13.323200988758,26.22886,71.005226,33.65545,33.65545,1.2485847,0.49153703,24.60141,1,1,7,2,2,0,0
1780397256.60977,1780397256.60425,52.5150676986712,13.3231988872386,26.233072,71.009445,33.65545,33.65545,1.2316859,0.49203843,24.60141,1,1,7,2,2,0,0
1780397256.81013,1780397256.80474,52.5150660618972,13.3231966105966,26.231295,71.007675,33.65545,33.65545,1.2142062,0.4875372,24.60141,1,1,7,2,2,0,0
1780397257.01063,1780397257.00523,52.5150645441039,13.3231945463806,26.235926,71.012314,33.65545,33.65545,1.239047,0.48969448,24.60141,1,1,7,2,2,0,0
1780397257.21112,1780397257.20573,52.5150631232145,13.3231929119253,26.24354,71.019936,33.65545,33.65545,1.2635279,0.49182397,24.60141,1,1,7,2,2,0,0
1780397257.41161,1780397257.40622,52.515061777869,13.3231915098925,26.24722,71.02362,33.65545,33.65545,1.2403616,0.48702276,24.60141,1,1,7,2,2,0,0
1780397257.61212,1780397257.60671,52.5150606733179,13.3231900108471,26.242931,71.01934,33.65545,33.65545,1.2012136,0.48552898,24.60141,1,1,7,2,2,0,0
1780397257.80279,1780397257.79718,52.5150597001764,13.3231882310452,26.253422,71.02984,33.65545,33.65545,1.1705931,0.4833856,24.60141,1,1,7,2,2,0,0
1780397258.00309,1780397257.99767,52.5150584446334,13.3231870071986,26.268112,71.04454,33.65545,33.65545,1.1377978,0.4760585,24.60141,1,1,7,2,2,0,0
1780397258.20361,1780397258.19816,52.5150564914537,13.3231849574099,26.277857,71.05429,33.65545,33.65545,1.125494,0.47509426,24.60141,1,1,7,2,2,0,0
1780397258.40426,1780397258.39865,52.5150547598415,13.3231831978376,26.2877,71.06414,33.65545,33.65545,1.1195091,0.47495627,24.60141,1,1,7,2,2,0,0
1780397258.60458,1780397258.59914,52.5150526941201,13.3231813904221,26.304712,71.08116,33.65545,33.65545,1.1122305,0.4702783,24.60141,1,1,7,2,2,0,0
1780397258.80506,1780397258.79963,52.5150506292995,13.323179742756,26.311077,71.08753,33.65545,33.65545,1.1049508,0.46984515,24.60141,1,1,7,2,2,0,0
1780397259.00571,1780397259.00013,52.5150490692664,13.323178005566,26.311466,71.08793,33.65545,33.65545,1.1008186,0.46995494,24.60141,1,1,7,2,2,0,0
1780397259.206,1780397259.20062,52.5150472811401,13.3231762511828,26.318727,71.0952,33.65545,33.65545,1.0919405,0.4689014,24.60141,1,1,7,2,2,0,0
1780397259.40651,1780397259.40111,52.5150452527488,13.3231744309285,26.325367,71.101845,33.65545,33.65545,1.0916553,0.46582764,24.60141,1,1,7,2,2,0,0
1780397259.60718,1780397259.6016,52.5150435585762,13.3231726553224,26.329086,71.105576,33.65545,33.65545,1.0984849,0.46779624,24.60141,1,1,7,2,2,0,0
1780397259.80761,1780397259.80209,52.5150421484697,13.3231710881701,26.325151,71.10165,33.65545,33.65545,1.1091914,0.46999657,24.60141,1,1,7,2,2,0,0
1780397260.00796,1780397260.00259,52.515040622891,13.3231695085787,26.31761,71.09411,33.65545,33.65545,1.1201475,0.46804154,24.60141,1,1,7,2,2,0,0
1780397260.20846,1780397260.20308,52.5150389671685,13.3231676771444,26.310875,71.08739,33.65545,33.65545,1.1315763,0.47020757,24.60141,1,1,7,2,2,0,0
1780397260.40896,1780397260.40357,52.5150373638543,13.3231658782557,26.303251,71.079765,33.65545,33.65545,1.1446048,0.47253072,24.60141,1,1,7,2,2,0,0
1780397260.60944,1780397260.60406,52.5150358953678,13.3231640399757,26.295269,71.07179,33.65545,33.65545,1.1581528,0.47060746,24.60141,1,1,7,2,2,0,0
1780397260.80993,1780397260.80455,52.515034378161,13.3231620733534,26.289621,71.066154,33.65545,33.65545,1.1731387,0.4730189,24.60141,1,1,7,2,2,0,0
1780397261.01049,1780397261.00504,52.5150328147861,13.323160002118,26.284357,71.0609,33.65545,33.65545,1.1888161,0.4754307,24.60141,1,1,7,2,2,0,0
1780397261.21094,1780397261.20554,52.5150314048908,13.323157966212,26.277782,71.05432,33.65545,33.65545,1.2059803,0.47358206,24.60141,1,1,7,2,2,0,0
1780397261.41149,1780397261.40603,52.515030135317,13.3231561050128,26.277084,71.05362,33.65545,33.65545,1.2243474,0.47607785,24.60141,1,1,7,2,2,0,0
1780397261.61191,1780397261.60652,52.5150290866189,13.3231546741955,26.279846,71.0564,33.65545,33.65545,1.2442892,0.478646,24.60141,1,1,7,2,2,0,0
1780397261.81243,1780397261.80701,52.5150280098858,13.3231533221545,26.275303,71.05185,33.65545,33.65545,1.2654715,0.47680742,24.60141,1,1,7,2,2,0,0
1780397262.00311,1780397261.99748,52.5150268409233,13.3231518365912,26.277504,71.05405,33.65545,33.65545,1.2835827,0.4785976,24.60141,1,1,7,2,2,0,0
1780397262.20335,1780397262.19797,52.5150253709244,13.3231501349349,26.285576,71.06212,33.65545,33.65545,1.3002939,0.48085263,24.60141,1,1,7,2,2,0,0
1780397262.4039,1780397262.39846,52.5150238143792,13.3231484173915,26.2827,71.05925,33.65545,33.65545,1.3174299,0.48312464,24.60141,1,1,7,2,2,0,0
1780397262.60455,1780397262.59895,52.5150222422459,13.3231467999203,26.27167,71.04822,33.65545,33.65545,1.3358005,0.48091984,24.60141,1,1,7,2,2,0,0
1780397262.80484,1780397262.79944,52.5150210178175,13.3231455192709,26.26825,71.0448,33.65545,33.65545,1.3548462,0.4832629,24.60141,1,1,7,2,2,0,0
1780397263.00544,1780397262.99994,52.5150200186417,13.3231444211151,26.260677,71.03723,33.65545,33.65545,1.3744907,0.4856698,24.60141,1,1,7,2,2,0,0
1780397263.20608,1780397263.20043,52.51501878281,13.3231430075218,26.257772,71.034325,33.65545,33.65545,1.3939811,0.48353595,24.60141,1,1,7,2,2,0,0
1780397263.40632,1780397263.40092,52.5150175409377,13.3231415500412,26.25604,71.03259,33.65545,33.65545,1.4131109,0.48598823,24.60141,1,1,7,2,2,0,0
1780397263.6068,1780397263.60141,52.5150165030849,13.3231402436759,26.259441,71.035995,33.65545,33.65545,1.4325625,0.4884668,24.60141,1,1,7,2,2,0,0
1780397263.80732,1780397263.8019,52.5150155742297,13.3231391541502,26.261198,71.03775,33.65545,33.65545,1.452133,0.48624915,24.60141,1,1,7,2,2,0,0
1780397264.00779,1780397264.0024,52.5150147581128,13.3231382473107,26.255787,71.03233,33.65545,33.65545,1.4728462,0.48872733,24.60141,1,1,7,2,2,0,0
1780397264.20832,1780397264.20289,52.5150139825596,13.3231373059462,26.24418,71.02073,33.65545,33.65545,1.4931678,0.4911973,24.60141,1,1,7,2,2,0,0
1780397264.4088,1780397264.40338,52.5150132988762,13.3231362892277,26.247944,71.02449,33.65545,33.65545,1.5111648,0.48881683,24.60141,1,1,7,2,2,0,0
1780397264.60929,1780397264.60387,52.5150123138181,13.3231351040575,26.251698,71.028244,33.65545,33.65545,1.5317682,0.49123716,24.60141,1,1,7,2,2,0,0
1780397264.80971,1780397264.80436,52.515011428541,13.3231341238719,26.244642,71.021194,33.65545,33.65545,1.5482407,0.49355686,24.60141,1,1,7,2,2,0,0
1780397265.01023,1780397265.00486,52.5150103861749,13.3231330283086,26.230682,71.00723,33.65545,33.65545,1.5596765,0.4909071,24.60141,1,1,7,2,2,0,0
1780397265.21073,1780397265.20535,52.5150090744875,13.323132033174,26.208597,70.985146,33.65545,33.65545,1.5745077,0.4930903,24.60141,1,1,7,2,2,0,0
1780397265.41119,1780397265.40584,52.5150079321754,13.3231306718107,26.189617,70.96617,33.65545,33.65545,1.5839919,0.49514875,24.60141,1,1,7,2,2,0,0
1780397265.61168,1780397265.60633,52.5150067114985,13.3231298583757,26.174751,70.9513,33.65545,33.65545,1.5908331,0.497129,24.60141,1,1,7,2,2,0,0
1780397265.81217,1780397265.80682,52.5150056526032,13.3231292816606,26.161564,70.93811,33.65545,33.65545,1.6008825,0.49423462,24.60141,1,1,7,2,2,0,0
1780397266.00264,1780397265.99729,52.5150047040103,13.3231286374642,26.148895,70.925446,33.65545,33.65545,1.6128892,0.49564102,24.60141,1,1,7,2,2,0,0
1780397266.20337,1780397266.19778,52.5150035459145,13.3231278609645,26.146864,70.923416,33.65545,33.65545,1.6043156,0.49724066,24.60141,1,1,7,2,2,0,0
1780397266.40371,1780397266.39827,52.5150023435515,13.3231270028629,26.1464,70.92296,33.65545,33.65545,1.6134611,0.4942669,24.60141,1,1,7,2,2,0,0
1780397266.60413,1780397266.59876,52.5150012778168,13.323126118004,26.141193,70.917755,33.65545,33.65545,1.6198555,0.49616775,24.60141,1,1,7,2,2,0,0
1780397266.8048,1780397266.79926,52.5150002364925,13.3231253389975,26.139847,70.916405,33.65545,33.65545,1.6355598,0.4982842,24.60141,1,1,7,2,2,0,0
1780397267.00513,1780397266.99975,52.5149995911205,13.3231248251286,26.137905,70.91446,33.65545,33.65545,1.6376289,0.49512514,24.60141,1,1,7,2,2,0,0
1780397267.20559,1780397267.20024,52.5149986834478,13.323124606203,26.127844,70.9044,33.65545,33.65545,1.6404518,0.49693316,24.60141,1,1,7,2,2,0,0
1780397267.40634,1780397267.40073,52.5149977273792,13.32312400977,26.127073,70.90363,33.65545,33.65545,1.6249042,0.49828437,24.60141,1,1,7,2,2,0,0
1780397267.60659,1780397267.60123,52.5149971261189,13.3231235268604,26.119019,70.89558,33.65545,33.65545,1.600945,0.49931434,24.60141,1,1,7,2,2,0,0
1780397267.80709,1780397267.80172,52.5149961936027,13.3231230182559,26.115685,70.89224,33.65545,33.65545,1.5710465,0.4950165,24.60141,1,1,7,2,2,0,0
1780397268.00762,1780397268.00221,52.514995274658,13.3231224484595,26.107876,70.88443,33.65545,33.65545,1.5385116,0.4952798,24.60141,1,1,7,2,2,0,0
1780397268.20806,1780397268.2027,52.5149937931285,13.3231213147051,26.106424,70.88298,33.65545,33.65545,1.5296108,0.4963356,24.60141,1,1,7,2,2,0,0
1780397268.40861,1780397268.40319,52.5149928662284,13.3231207227381,26.095266,70.871826,33.65545,33.65545,1.5295001,0.49288,24.60141,1,1,7,2,2,0,0
1780397268.60907,1780397268.60368,52.5149918595971,13.3231203312956,26.089449,70.866005,33.65545,33.65545,1.5301094,0.49430457,24.60141,1,1,7,2,2,0,0
1780397268.80953,1780397268.80418,52.5149910721617,13.3231195394067,26.088558,70.86511,33.65545,33.65545,1.5280278,0.49558264,24.60141,1,1,7,2,2,0,0
1780397269.01001,1780397269.00467,52.5149905065121,13.3231186726927,26.084332,70.86089,33.65545,33.65545,1.5313369,0.4922479,24.60141,1,1,7,2,2,0,0
1780397269.21051,1780397269.20516,52.5149897282269,13.323117868791,26.084923,70.86148,33.65545,33.65545,1.4984536,0.49172956,24.60141,1,1,7,2,2,0,0
1780397269.40107,1780397269.39563,52.514988682903,13.3231168460293,26.07156,70.84812,33.65545,33.65545,1.4304715,0.48629132,24.60141,1,1,7,2,2,0,0
1780397269.61151,1780397269.60614,52.5149884264273,13.3231156042992,26.074818,70.85138,33.65545,33.65545,1.4020528,0.47938716,24.60141,1,1,7,2,2,0,0
1780397269.81198,1780397269.80664,52.514987942871,13.3231145712926,26.087082,70.86365,33.65545,33.65545,1.3941832,0.4796918,24.60141,1,1,7,2,2,0,0
1780397270.01248,1780397270.00713,52.5149876419142,13.3231140701743,26.143488,70.92005,33.65545,33.65545,1.3839339,0.47944126,24.60141,1,1,7,2,2,0,0
1780397270.20294,1780397270.1976,52.5149871431876,13.323113469697,26.183807,70.96037,33.65545,33.65545,1.3764694,0.47926122,24.60141,1,1,7,2,2,0,0
1780397270.40366,1780397270.39809,52.5149863497302,13.3231125957509,26.205555,70.982124,33.65545,33.65545,1.3691678,0.47514364,24.60141,1,1,7,2,2,0,0
1780397270.60398,1780397270.59858,52.5149853585504,13.3231117976143,26.215452,70.99203,33.65545,33.65545,1.3606185,0.47500822,24.60141,1,1,7,2,2,0,0
1780397270.80441,1780397270.79907,52.5149845607536,13.323111180805,26.213108,70.989685,33.65545,33.65545,1.3510793,0.4744309,24.60141,1,1,7,2,2,0,0
1780397271.00513,1780397270.99956,52.51498373169,13.3231106238225,26.212414,70.989,33.65545,33.65545,1.3419406,0.46958137,24.60141,1,1,7,2,2,0,0
1780397271.2054,1780397271.20005,52.5149827416046,13.3231098508476,26.214098,70.990685,33.65545,33.65545,1.3274206,0.46893418,24.60141,1,1,7,2,2,0,0
1780397271.40339,1780397271.40305,52.5149820769723,13.3231090035199,26.210218,70.98681,33.65545,33.65545,1.3134109,0.46816885,24.60141,1,1,7,2,2,0,0
1780397271.60398,1780397271.60354,52.5149814348805,13.3231083422461,26.207169,70.983765,33.65545,33.65545,1.2999866,0.46327156,24.60141,1,1,7,2,2,0,0
1780397271.80438,1780397271.80404,52.514980714814,13.323107717764,26.196373,70.97297,33.65545,33.65545,1.287137,0.46276957,24.60141,1,1,7,2,2,0,0
1780397272.00487,1780397272.00453,52.5149797930569,13.3231071059048,26.203564,70.98016,33.65545,33.65545,1.2708176,0.46083057,24.60141,1,1,7,2,2,0,0
1780397272.20537,1780397272.20502,52.5149784541747,13.3231061007921,26.21442,70.99101,33.65545,33.65545,1.2524627,0.45522025,24.60141,1,1,7,2,2,0,0
1780397272.40587,1780397272.40551,52.5149771166985,13.3231052592796,26.195354,70.971954,33.65545,33.65545,1.2343043,0.45369652,24.60141,1,1,7,2,2,0,0
1780397272.60641,1780397272.606,52.5149757053577,13.3231046438817,26.174536,70.95114,33.65545,33.65545,1.2179877,0.45317537,24.60141,1,1,7,2,2,0,0
1780397272.80689,1780397272.8065,52.5149741628974,13.323104010323,26.170221,70.94682,33.65545,33.65545,1.2031481,0.4488756,24.60141,1,1,7,2,2,0,0
1780397273.00733,1780397273.00699,52.5149727399847,13.3231034652787,26.17446,70.95107,33.65545,33.65545,1.1899267,0.44864184,24.60141,1,1,7,2,2,0,0
1780397273.20784,1780397273.20748,52.514971570341,13.3231029760635,26.16536,70.94198,33.65545,33.65545,1.1772872,0.44788188,24.60141,1,1,7,2,2,0,0
1780397273.40834,1780397273.40797,52.514970428372,13.323102116189,26.144327,70.920944,33.65545,33.65545,1.1648101,0.4437262,24.60141,1,1,7,2,2,0,0
1780397273.60881,1780397273.60846,52.5149692233126,13.323101072469,26.112309,70.88893,33.65545,33.65545,1.1514195,0.44311735,24.60141,1,1,7,2,2,0,0
1780397273.80934,1780397273.80896,52.5149680277486,13.3231000947094,26.087566,70.8642,33.65545,33.65545,1.1372147,0.44262418,24.60141,1,1,7,2,2,0,0
1780397274.00981,1780397274.00945,52.5149668914949,13.3230990608614,26.052563,70.8292,33.65545,33.65545,1.121853,0.44129652,24.60141,1,1,7,2,2,0,0
1780397274.21031,1780397274.20994,52.5149657836521,13.3230979563873,26.026678,70.80332,33.65545,33.65545,1.1061808,0.43669617,24.60141,1,1,7,2,2,0,0
1780397274.41078,1780397274.41043,52.5149644646188,13.3230967625555,26.00491,70.781555,33.65545,33.65545,1.0912981,0.4366081,24.60141,1,1,7,2,2,0,0
1780397274.61126,1780397274.61092,52.5149629049837,13.3230956729061,25.96899,70.74564,33.65545,33.65545,1.0768018,0.43655634,24.60141,1,1,7,2,2,0,0
1780397274.8018,1780397274.80139,52.5149613596302,13.3230948430238,25.943102,70.71976,33.65545,33.65545,1.0626606,0.43241888,24.60141,1,1,7,2,2,0,0
1780397275.00222,1780397275.00188,52.5149594769179,13.3230938524734,25.901285,70.67795,33.65545,33.65545,1.050006,0.43201557,24.60141,1,1,7,2,2,0,0
1780397275.21275,1780397275.2124,52.5149574502243,13.3230926028734,25.857426,70.634094,33.65545,33.65545,1.0395229,0.43268123,24.60141,1,1,7,2,2,0,0
1780397275.41324,1780397275.41289,52.5149556343398,13.3230916261299,25.819607,70.59627,33.65545,33.65545,1.0295918,0.43020102,24.60141,1,1,7,2,2,0,0
1780397275.60375,1780397275.60336,52.5149540118349,13.3230908536389,25.788084,70.56475,33.65545,33.65545,1.0174695,0.43028325,24.60141,1,1,7,2,2,0,0
1780397275.80424,1780397275.80385,52.5149523617847,13.3230899129163,25.7624,70.53907,33.65545,33.65545,1.0040778,0.4309706,24.60141,1,1,7,2,2,0,0
1780397276.00474,1780397276.00434,52.5149505826383,13.3230889187545,25.724455,70.50112,33.65545,33.65545,0.98936415,0.4281703,24.60141,1,1,7,2,2,0,0
1780397276.20518,1780397276.20484,52.5149490912402,13.3230885174658,25.662699,70.43937,33.65545,33.65545,0.97368807,0.42848045,24.60141,1,1,7,2,2,0,0
1780397276.40567,1780397276.40533,52.5149472900135,13.3230876456209,25.591858,70.36853,33.65545,33.65545,0.9578826,0.42859662,24.60141,1,1,7,2,2,0,0
1780397276.60616,1780397276.60582,52.5149453669616,13.3230865003644,25.517677,70.29435,33.65545,33.65545,0.9416122,0.42763102,24.60141,1,1,7,2,2,0,0
1780397276.80666,1780397276.80631,52.5149438461088,13.3230859369137,25.444271,70.22095,33.65545,33.65545,0.9263239,0.42241168,24.60141,1,1,7,2,2,0,0
1780397277.00721,1780397277.0068,52.5149425285676,13.3230854113126,25.371304,70.14798,33.65545,33.65545,0.91377723,0.42018852,24.60141,1,1,7,2,2,0,0
1780397277.20774,1780397277.2073,52.51494115158,13.3230845560824,25.297363,70.07405,33.65545,33.65545,0.90320015,0.41733763,24.60141,1,1,7,2,2,0,0
1780397277.40814,1780397277.40779,52.5149397411839,13.323083669648,25.247913,70.0246,33.65545,33.65545,0.8940119,0.41180134,24.60141,1,1,7,2,2,0,0
1780397277.60863,1780397277.60828,52.5149383820688,13.323082599081,25.210978,69.98766,33.65545,33.65545,0.8845406,0.40910462,24.60141,1,1,7,2,2,0,0
1780397277.80912,1780397277.80877,52.5149370742339,13.3230813448443,25.185997,69.962685,33.65545,33.65545,0.875421,0.40640816,24.60141,1,1,7,2,2,0,0
1780397278.00967,1780397278.00926,52.5149356891225,13.323079902522,25.139376,69.91606,33.65545,33.65545,0.8671269,0.40112746,24.60141,1,1,7,2,2,0,0
1780397278.21009,1780397278.20976,52.5149342593987,13.3230783022263,25.076141,69.85283,33.65545,33.65545,0.85954213,0.39857283,24.60141,1,1,7,2,2,0,0
1780397278.4106,1780397278.41025,52.5149328921826,13.3230767506843,25.018652,69.79534,33.65545,33.65545,0.85238934,0.3961356,24.60141,1,1,7,2,2,0,0
1780397278.61112,1780397278.61074,52.5149316501624,13.3230752452675,24.968443,69.74514,33.65545,33.65545,0.84573907,0.39154285,24.60141,1,1,7,2,2,0,0
1780397278.81162,1780397278.81123,52.5149302949995,13.3230739138983,24.893126,69.66982,33.65545,33.65545,0.83970594,0.39001915,24.60141,1,1,7,2,2,0,0
1780397279.00206,1780397279.0017,52.5149291929424,13.3230725756837,24.836596,69.61329,33.65545,33.65545,0.83353704,0.38787228,24.60141,1,1,7,2,2,0,0
1780397279.20255,1780397279.20219,52.5149281516686,13.3230710271654,24.785202,69.5619,33.65545,33.65545,0.8277664,0.38598356,24.60141,1,1,7,2,2,0,0
1780397279.41305,1780397279.41271,52.514926754103,13.3230690666515,24.730186,69.50688,33.65545,33.65545,0.82325155,0.38265,24.60141,1,1,7,2,2,0,0
1780397279.60352,1780397279.60318,52.5149255836403,13.3230673478715,24.705002,69.4817,33.65545,33.65545,0.8197085,0.38141346,24.60141,1,1,7,2,2,0,0
1780397279.80401,1780397279.80367,52.5149245248394,13.3230663920385,24.6722,69.4489,33.65545,33.65545,0.81715095,0.3809554,24.60141,1,1,7,2,2,0,0
1780397280.0045,1780397280.00416,52.514923484747,13.3230653915669,24.675594,69.452286,33.65545,33.65545,0.81481886,0.3784352,24.60141,1,1,7,2,2,0,0
1780397280.20504,1780397280.20465,52.5149223566114,13.3230638415453,24.664255,69.44095,33.65545,33.65545,0.8124555,0.37808123,24.60141,1,1,7,2,2,0,0
1780397280.40554,1780397280.40514,52.5149211625769,13.3230623703105,24.644293,69.42099,33.65545,33.65545,0.8101018,0.3780922,24.60141,1,1,7,2,2,0,0
1780397280.60598,1780397280.60564,52.5149198329193,13.3230608282572,24.617125,69.39383,33.65545,33.65545,0.80699825,0.37586093,24.60141,1,1,7,2,2,0,0
1780397280.80649,1780397280.80613,52.5149185895735,13.3230593650598,24.58628,69.36298,33.65545,33.65545,0.803934,0.376293,24.60141,1,1,7,2,2,0,0
1780397281.00696,1780397281.00662,52.5149173621085,13.3230581203756,24.54982,69.32652,33.65545,33.65545,0.80159014,0.37742013,24.60141,1,1,7,2,2,0,0
1780397281.20757,1780397281.20711,52.514915956432,13.323056665679,24.51356,69.290276,33.65545,33.65545,0.7999924,0.37685546,24.60141,1,1,7,2,2,0,0
1780397281.40796,1780397281.40761,52.5149146175093,13.3230552333928,24.478281,69.255005,33.65545,33.65545,0.79858196,0.37851137,24.60141,1,1,7,2,2,0,0
1780397281.60844,1780397281.6081,52.5149132089221,13.3230538524807,24.434229,69.21096,33.65545,33.65545,0.7964675,0.37955776,24.60141,1,1,7,2,2,0,0
1780397281.80896,1780397281.80859,52.5149117694742,13.3230523092385,24.368702,69.14544,33.65545,33.65545,0.7943441,0.37833604,24.60141,1,1,7,2,2,0,0
1780397282.00448,1780397281.99906,52.5149104120861,13.3230508647105,24.300156,69.076904,33.65545,33.65545,0.79226553,0.37897307,24.60141,1,1,7,2,2,0,0
1780397282.20493,1780397282.19955,52.5149089145442,13.3230490693977,24.226233,69.00298,33.65545,33.65545,0.7915051,0.3802394,24.60141,1,1,7,2,2,0,0
1780397282.40569,1780397282.40004,52.5149073939166,13.3230469306317,24.148838,68.9256,33.65545,33.65545,0.7906709,0.38140252,24.60141,1,1,7,2,2,0,0
1780397282.60592,1780397282.60053,52.514905933825,13.3230449201042,24.086723,68.863495,33.65545,33.65545,0.78940505,0.3802131,24.60141,1,1,7,2,2,0,0
1780397282.80643,1780397282.80102,52.5149045145763,13.3230428894612,24.01391,68.79069,33.65545,33.65545,0.7886988,0.38152584,24.60141,1,1,7,2,2,0,0
1780397283.00709,1780397283.00152,52.5149031960375,13.323041011978,23.939245,68.71603,33.65545,33.65545,0.78739506,0.38267148,24.60141,1,1,7,2,2,0,0
1780397283.20739,1780397283.20201,52.5149018390696,13.3230390274233,23.871645,68.64843,33.65545,33.65545,0.78587073,0.3814734,24.60141,1,1,7,2,2,0,0
1780397283.40795,1780397283.4025,52.5149005560718,13.3230371365618,23.796814,68.5736,33.65545,33.65545,0.7858086,0.3829815,24.60141,1,1,7,2,2,0,0
1780397283.60843,1780397283.60299,52.5148994046652,13.3230356275214,23.733309,68.5101,33.65545,33.65545,0.78272915,0.3834633,24.60141,1,1,7,2,2,0,0
1780397283.80896,1780397283.80349,52.5148982095634,13.3230340605385,23.671482,68.44827,33.65545,33.65545,0.7834831,0.38294724,24.60141,1,1,7,2,2,0,0
1780397284.00936,1780397284.00398,52.5148969946288,13.3230325243341,23.603064,68.37986,33.65545,33.65545,0.7861596,0.38544846,24.60141,1,1,7,2,2,0,0
1780397284.20985,1780397284.20447,52.5148957881985,13.3230309415648,23.536978,68.31378,33.65545,33.65545,0.78677654,0.38770986,24.60141,1,1,7,2,2,0,0
1780397284.4104,1780397284.40496,52.5148942208827,13.3230288608478,23.47398,68.25079,33.65545,33.65545,0.7899641,0.3885501,24.60141,1,1,7,2,2,0,0
1780397284.61085,1780397284.60546,52.514892350697,13.3230266209813,23.421215,68.19803,33.65545,33.65545,0.7935138,0.39212504,24.60141,1,1,7,2,2,0,0
1780397284.80151,1780397284.79592,52.514890408598,13.3230247463086,23.393124,68.16995,33.65545,33.65545,0.7976913,0.39565393,24.60141,1,1,7,2,2,0,0
1780397285.01183,1780397285.00644,52.5148883268479,13.3230232743304,23.373346,68.15018,33.65545,33.65545,0.80354494,0.40023232,24.60141,1,1,7,2,2,0,0
1780397285.21234,1780397285.20693,52.5148857723268,13.3230218533144,23.345633,68.12247,33.65545,33.65545,0.78997445,0.400084,24.60141,1,1,7,2,2,0,0
1780397285.41281,1780397285.40742,52.5148829968418,13.3230208667765,23.298096,68.074936,33.65545,33.65545,0.7776918,0.4024644,24.60141,1,1,7,2,2,0,0
1780397285.60332,1780397285.59789,52.5148802169531,13.3230196564109,23.248043,68.02489,33.65545,33.65545,0.7659594,0.4043075,24.60141,1,1,7,2,2,0,0
1780397285.80386,1780397285.79838,52.5148772732285,13.3230183386,23.208685,67.985535,33.65545,33.65545,0.7528752,0.4034428,24.60141,1,1,7,2,2,0,0
1780397286.00444,1780397285.99887,52.5148745781493,13.3230166773945,23.183908,67.96076,33.65545,33.65545,0.7397167,0.4050255,24.60141,1,1,7,2,2,0,0
1780397286.20475,1780397286.19937,52.5148722058223,13.3230153989349,23.142796,67.91965,33.65545,33.65545,0.7287968,0.40681288,24.60141,1,1,7,2,2,0,0
1780397286.40528,1780397286.39986,52.5148700940791,13.3230146031895,23.087896,67.86475,33.65545,33.65545,0.7205981,0.40604433,24.60141,1,1,7,2,2,0,0
1780397286.60595,1780397286.60035,52.5148681585518,13.3230134280375,23.039614,67.816475,33.65545,33.65545,0.7162386,0.40821615,24.60141,1,1,7,2,2,0,0
1780397286.80626,1780397286.80084,52.5148662041438,13.323011727523,23.00204,67.778915,33.65545,33.65545,0.7131104,0.41024286,24.60141,1,1,7,2,2,0,0
1780397287.00672,1780397287.00134,52.5148642206498,13.323010092035,22.961885,67.73876,33.65545,33.65545,0.71123457,0.40968356,24.60141,1,1,7,2,2,0,0
1780397287.20718,1780397287.20183,52.5148621904205,13.3230081943147,22.933397,67.71027,33.65545,33.65545,0.70387065,0.41103405,24.60141,1,1,7,2,2,0,0
1780397287.40771,1780397287.40232,52.5148603508177,13.323006166786,22.920298,67.697174,33.65545,33.65545,0.6984323,0.41256702,24.60141,1,1,7,2,2,0,0
1780397287.60817,1780397287.60281,52.5148586542182,13.3230045412661,22.887903,67.66478,33.65545,33.65545,0.6926373,0.41364482,24.60141,1,1,7,2,2,0,0
1780397287.80867,1780397287.80331,52.5148571174879,13.3230030329994,22.882767,67.659645,33.65545,33.65545,0.691749,0.41257375,24.60141,1,1,7,2,2,0,0
1780397288.00915,1780397288.0038,52.514855428245,13.3230012347783,22.86141,67.63829,33.65545,33.65545,0.6925274,0.4145483,24.60141,1,1,7,2,2,0,0
1780397288.20964,1780397288.20429,52.5148536856953,13.3229996500038,22.850807,67.627686,33.65545,33.65545,0.6943995,0.4167262,24.60141,1,1,7,2,2,0,0
1780397288.4102,1780397288.40478,52.514851907028,13.3229983402512,22.848106,67.624985,33.65545,33.65545,0.697678,0.41626883,24.60141,1,1,7,2,2,0,0
1780397288.61063,1780397288.60527,52.5148503648624,13.3229975239087,22.83883,67.61571,33.65545,33.65545,0.70013434,0.41849118,24.60141,1,1,7,2,2,0,0
1780397288.81118,1780397288.80577,52.5148487049378,13.3229966920868,22.83556,67.61244,33.65545,33.65545,0.70328873,0.42080438,24.60141,1,1,7,2,2,0,0
1780397289.0018,1780397288.99623,52.5148469474658,13.3229958384646,22.831015,67.607895,33.65545,33.65545,0.7050119,0.41940552,24.60141,1,1,7,2,2,0,0
1780397289.2121,1780397289.20675,52.5148450346143,13.3229950573307,22.837454,67.614334,33.65545,33.65545,0.7089542,0.422168,24.60141,1,1,7,2,2,0,0
1780397289.41259,1780397289.40724,52.5148431577921,13.3229944136764,22.843843,67.62073,33.65545,33.65545,0.7133988,0.42459407,24.60141,1,1,7,2,2,0,0
1780397289.60324,1780397289.59771,52.5148413337687,13.3229937787863,22.853477,67.630356,33.65545,33.65545,0.7135603,0.42580462,24.60141,1,1,7,2,2,0,0
1780397289.80365,1780397289.7982,52.5148396548526,13.3229933111725,22.849678,67.62656,33.65545,33.65545,0.7110328,0.42374307,24.60141,1,1,7,2,2,0,0
1780397290.00408,1780397289.9987,52.5148379595831,13.3229927411248,22.856888,67.63377,33.65545,33.65545,0.707187,0.42439112,24.60141,1,1,7,2,2,0,0
1780397290.20472,1780397290.19919,52.5148363053232,13.3229920901518,22.855026,67.63191,33.65545,33.65545,0.7048652,0.42525133,24.60141,1,1,7,2,2,0,0
1780397290.40503,1780397290.39968,52.5148346512525,13.3229913069367,22.848358,67.625244,33.65545,33.65545,0.70354646,0.42318434,24.60141,1,1,7,2,2,0,0
1780397290.60561,1780397290.60017,52.5148330065331,13.322990183925,22.829908,67.6068,33.65545,33.65545,0.70379174,0.4245193,24.60141,1,1,7,2,2,0,0
1780397290.80626,1780397290.80066,52.514831370659,13.322989382583,22.803104,67.58,33.65545,33.65545,0.70629174,0.426364,24.60141,1,1,7,2,2,0,0
1780397291.00659,1780397291.00116,52.5148298967399,13.3229890591684,22.776726,67.55362,33.65545,33.65545,0.7098907,0.4252993,24.60141,1,1,7,2,2,0,0
1780397291.20707,1780397291.20165,52.5148285419786,13.3229888778287,22.758062,67.534966,33.65545,33.65545,0.7129244,0.42720684,24.60141,1,1,7,2,2,0,0
1780397291.40758,1780397291.40214,52.5148269903999,13.3229880322109,22.735178,67.512085,33.65545,33.65545,0.7171414,0.42937788,24.60141,1,1,7,2,2,0,0
1780397291.60804,1780397291.60263,52.5148252350352,13.3229868492288,22.713034,67.48995,33.65545,33.65545,0.7200021,0.42816514,24.60141,1,1,7,2,2,0,0
1780397291.80847,1780397291.80313,52.514823504877,13.3229858383019,22.69695,67.47387,33.65545,33.65545,0.7220242,0.43004727,24.60141,1,1,7,2,2,0,0
1780397292.00901,1780397292.00362,52.5148218710448,13.3229849956547,22.68017,67.4571,33.65545,33.65545,0.72482926,0.4320798,24.60141,1,1,7,2,2,0,0
1780397292.20958,1780397292.20411,52.5148202483123,13.3229839188311,22.65501,67.431946,33.65545,33.65545,0.7271447,0.43069586,24.60141,1,1,7,2,2,0,0
1780397292.41,1780397292.4046,52.5148186907766,13.3229827514777,22.625086,67.40202,33.65545,33.65545,0.72946876,0.43255332,24.60141,1,1,7,2,2,0,0
1780397292.61049,1780397292.6051,52.5148169298464,13.3229815860602,22.60506,67.382,33.65545,33.65545,0.7314489,0.4343293,24.60141,1,1,7,2,2,0,0
1780397292.81101,1780397292.80559,52.5148151347326,13.3229803858975,22.58978,67.36673,33.65545,33.65545,0.73370653,0.4328119,24.60141,1,1,7,2,2,0,0
1780397293.0115,1780397293.00608,52.5148135040481,13.3229793943771,22.582432,67.359375,33.65545,33.65545,0.73542255,0.43447322,24.60141,1,1,7,2,2,0,0
1780397293.20222,1780397293.19655,52.5148120019203,13.322978396815,22.569866,67.34682,33.65545,33.65545,0.73348135,0.43509707,24.60141,1,1,7,2,2,0,0
1780397293.41241,1780397293.40706,52.5148103887504,13.3229773215106,22.549667,67.326614,33.65545,33.65545,0.7360189,0.4372837,24.60141,1,1,7,2,2,0,0
1780397293.61291,1780397293.60756,52.5148088489261,13.3229762408167,22.541468,67.31842,33.65545,33.65545,0.74063486,0.4360789,24.60141,1,1,7,2,2,0,0
1780397293.8036,1780397293.79802,52.5148071953262,13.3229750994551,22.52743,67.30438,33.65545,33.65545,0.743614,0.43758392,24.60141,1,1,7,2,2,0,0
1780397294.00392,1780397293.99852,52.5148054804245,13.3229739814917,22.516651,67.29361,33.65545,33.65545,0.7491877,0.43988666,24.60141,1,1,7,2,2,0,0
1780397294.20453,1780397294.19901,52.5148037691562,13.3229728173505,22.51514,67.29211,33.65545,33.65545,0.7511382,0.43820179,24.60141,1,1,7,2,2,0,0
1780397294.40509,1780397294.3995,52.5148020492485,13.3229716584248,22.511103,67.28807,33.65545,33.65545,0.7519364,0.43976367,24.60141,1,1,7,2,2,0,0
1780397294.6054,1780397294.6,52.5148003428344,13.3229706047063,22.513304,67.29028,33.65545,33.65545,0.75495946,0.4415807,24.60141,1,1,7,2,2,0,0
1780397294.80596,1780397294.80049,52.5147989208884,13.3229697467961,22.51482,67.29181,33.65545,33.65545,0.75057834,0.43876976,24.60141,1,1,7,2,2,0,0
1780397295.00658,1780397295.00098,52.5147974312993,13.3229688967142,22.52759,67.30458,33.65545,33.65545,0.7495653,0.43983686,24.60141,1,1,7,2,2,0,0
1780397295.20692,1780397295.20147,52.5147959812039,13.322968088816,22.539545,67.31654,33.65545,33.65545,0.7523518,0.44148853,24.60141,1,1,7,2,2,0,0
1780397295.40739,1780397295.40196,52.514794171017,13.3229668874842,22.542524,67.319534,33.65545,33.65545,0.7549688,0.43960938,24.60141,1,1,7,2,2,0,0
1780397295.60785,1780397295.60246,52.5147922327661,13.3229655612825,22.534895,67.31191,33.65545,33.65545,0.7569158,0.44100177,24.60141,1,1,7,2,2,0,0
1780397295.80834,1780397295.80295,52.5147901587896,13.3229639728625,22.515848,67.29287,33.65545,33.65545,0.75901437,0.44247368,24.60141,1,1,7,2,2,0,0
1780397296.00884,1780397296.00344,52.5147879704746,13.322962429429,22.48242,67.259445,33.65545,33.65545,0.756999,0.4435417,24.60141,1,1,7,2,2,0,0
1780397296.2094,1780397296.20394,52.5147856765109,13.3229605226539,22.449354,67.22638,33.65545,33.65545,0.7498111,0.44064212,24.60141,1,1,7,2,2,0,0
1780397296.40985,1780397296.40443,52.5147833993751,13.322958525958,22.40781,67.18484,33.65545,33.65545,0.743247,0.44134554,24.60141,1,1,7,2,2,0,0
1780397296.61027,1780397296.60492,52.5147812010117,13.3229567329336,22.365122,67.14216,33.65545,33.65545,0.73964757,0.44231027,24.60141,1,1,7,2,2,0,0
1780397296.81076,1780397296.80541,52.5147789696477,13.3229550308673,22.32113,67.09817,33.65545,33.65545,0.7390151,0.440101,24.60141,1,1,7,2,2,0,0
1780397297.01125,1780397297.0059,52.5147768714093,13.3229535896865,22.28329,67.06033,33.65545,33.65545,0.7390817,0.44124258,24.60141,1,1,7,2,2,0,0
1780397297.20172,1780397297.19637,52.5147750170115,13.3229523836847,22.251732,67.02878,33.65545,33.65545,0.7355395,0.4411479,24.60141,1,1,7,2,2,0,0
1780397297.40249,1780397297.39686,52.5147730299049,13.3229510353794,22.212482,66.98953,33.65545,33.65545,0.7302137,0.43757373,24.60141,1,1,7,2,2,0,0
1780397297.61274,1780397297.60738,52.5147711051858,13.3229497235295,22.1841,66.96115,33.65545,33.65545,0.72846967,0.43831274,24.60141,1,1,7,2,2,0,0
1780397297.81324,1780397297.80787,52.5147689928852,13.3229483398235,22.14709,66.92414,33.65545,33.65545,0.72936094,0.43913707,24.60141,1,1,7,2,2,0,0
1780397298.00396,1780397297.99834,52.514766944349,13.3229471509792,22.110453,66.887505,33.65545,33.65545,0.7295832,0.43951845,24.60141,1,1,7,2,2,0,0
1780397298.20418,1780397298.19883,52.514765005088,13.3229463107466,22.079397,66.85646,33.65545,33.65545,0.7324317,0.43751147,24.60141,1,1,7,2,2,0,0
1780397298.40471,1780397298.39933,52.5147629900351,13.322945543814,22.053032,66.83009,33.65545,33.65545,0.732129,0.4385633,24.60141,1,1,7,2,2,0,0
1780397298.60539,1780397298.59982,52.5147605973717,13.3229445179113,22.016066,66.79314,33.65545,33.65545,0.72842646,0.43938485,24.60141,1,1,7,2,2,0,0
1780397298.80566,1780397298.80031,52.5147580891929,13.3229436308979,21.984274,66.76135,33.65545,33.65545,0.7264002,0.43743214,24.60141,1,1,7,2,2,0,0
1780397299.00621,1780397299.0008,52.5147554305152,13.3229426518235,21.956673,66.73375,33.65545,33.65545,0.7279923,0.4394494,24.60141,1,1,7,2,2,0,0
1780397299.20687,1780397299.2013,52.5147528519496,13.3229417487361,21.941164,66.71825,33.65545,33.65545,0.73075825,0.4414047,24.60141,1,1,7,2,2,0,0
1780397299.40723,1780397299.40179,52.5147502318003,13.3229405557923,21.922714,66.6998,33.65545,33.65545,0.73188215,0.43953535,24.60141,1,1,7,2,2,0,0
1780397299.60775,1780397299.60228,52.5147476949768,13.322939141313,21.893438,66.67053,33.65545,33.65545,0.7311659,0.4407273,24.60141,1,1,7,2,2,0,0
1780397299.80816,1780397299.80277,52.514744949587,13.322937750099,21.858654,66.63576,33.65545,33.65545,0.73090655,0.44195914,24.60141,1,1,7,2,2,0,0
1780397300.00866,1780397300.00327,52.5147421434866,13.3229363191498,21.820194,66.597305,33.65545,33.65545,0.72867763,0.43943462,24.60141,1,1,7,2,2,0,0
1780397300.20915,1780397300.20376,52.5147394182726,13.3229348668261,21.787102,66.564224,33.65545,33.65545,0.7214266,0.4395961,24.60141,1,1,7,2,2,0,0
1780397300.40964,1780397300.40425,52.5147362843726,13.3229329833786,21.72788,66.505005,33.65545,33.65545,0.71480983,0.43977493,24.60141,1,1,7,2,2,0,0
1780397300.61022,1780397300.60474,52.51473330237,13.3229311916749,21.670227,66.44736,33.65545,33.65545,0.71004385,0.4365927,24.60141,1,1,7,2,2,0,0
1780397300.81062,1780397300.80524,52.514730563322,13.3229295401342,21.608284,66.38542,33.65545,33.65545,0.7064987,0.43666372,24.60141,1,1,7,2,2,0,0
1780397301.01113,1780397301.00573,52.5147278669236,13.3229279189674,21.536282,66.31343,33.65545,33.65545,0.7051293,0.43672583,24.60141,1,1,7,2,2,0,0
1780397301.21168,1780397301.20622,52.5147252679004,13.3229261556233,21.45386,66.23101,33.65545,33.65545,0.7009134,0.43266395,24.60141,1,1,7,2,2,0,0
1780397301.40207,1780397301.39669,52.5147228930219,13.3229239195528,21.407671,66.18482,33.65545,33.65545,0.68927294,0.43010524,24.60141,1,1,7,2,2,0,0
1780397301.60283,1780397301.59718,52.5147205796449,13.3229215407128,21.361242,66.1384,33.65545,33.65545,0.68493176,0.42968944,24.60141,1,1,7,2,2,0,0
1780397301.81308,1780397301.8077,52.5147180201268,13.322919550044,21.319721,66.09688,33.65545,33.65545,0.6802574,0.42997053,24.60141,1,1,7,2,2,0,0
1780397302.00359,1780397301.99817,52.5147154931283,13.3229178683675,21.274883,66.05205,33.65545,33.65545,0.67527777,0.42650717,24.60141,1,1,7,2,2,0,0
1780397302.20424,1780397302.19866,52.5147125761476,13.3229160578829,21.233004,66.01016,33.65545,33.65545,0.6738606,0.4273604,24.60141,1,1,7,2,2,0,0
1780397302.40456,1780397302.39915,52.5147096759874,13.3229144756187,21.188822,65.96598,33.65545,33.65545,0.67192155,0.4278911,24.60141,1,1,7,2,2,0,0
1780397302.60255,1780397302.60215,52.5147068350898,13.3229130659283,21.148428,65.92559,33.65545,33.65545,0.66391796,0.42344388,24.60141,1,1,7,2,2,0,0
1780397302.80299,1780397302.80264,52.5147046978063,13.3229118689306,21.125921,65.90308,33.65545,33.65545,0.6541676,0.4212993,24.60141,1,1,7,2,2,0,0
1780397303.00348,1780397303.00314,52.5147023559452,13.3229107765991,21.091291,65.868454,33.65545,33.65545,0.64768857,0.42009455,24.60141,1,1,7,2,2,0,0
1780397303.20402,1780397303.20363,52.5146998601747,13.3229094797952,21.058474,65.83563,33.65545,33.65545,0.6415869,0.41631994,24.60141,1,1,7,2,2,0,0
1780397303.40448,1780397303.40412,52.5146973706897,13.3229082283893,21.015533,65.792694,33.65545,33.65545,0.63601667,0.41587126,24.60141,1,1,7,2,2,0,0
1780397303.60495,1780397303.60461,52.51469527534,13.3229073043219,20.985643,65.7628,33.65545,33.65545,0.62993044,0.41508734,24.60141,1,1,7,2,2,0,0
1780397303.80557,1780397303.80511,52.5146935398823,13.322906558523,20.977787,65.754944,33.65545,33.65545,0.6257042,0.41200885,24.60141,1,1,7,2,2,0,0
1780397304.00594,1780397304.0056,52.5146917976871,13.32290533982,20.960629,65.73779,33.65545,33.65545,0.6201346,0.41125694,24.60141,1,1,7,2,2,0,0
1780397304.2065,1780397304.20609,52.5146901393314,13.3229038163524,20.933846,65.711006,33.65545,33.65545,0.61422956,0.410351,24.60141,1,1,7,2,2,0,0
1780397304.40693,1780397304.40658,52.5146885602795,13.3229022260883,20.901165,65.67833,33.65545,33.65545,0.612326,0.41048217,24.60141,1,1,7,2,2,0,0
1780397304.60746,1780397304.60708,52.514687209902,13.322900622099,20.881409,65.65857,33.65545,33.65545,0.61161786,0.40726,24.60141,1,1,7,2,2,0,0
1780397304.80798,1780397304.80757,52.5146861089895,13.32289907645,20.865223,65.64238,33.65545,33.65545,0.61204666,0.4070474,24.60141,1,1,7,2,2,0,0
1780397305.00841,1780397305.00806,52.5146851405941,13.3228977189764,20.848238,65.6254,33.65545,33.65545,0.6123119,0.406836,24.60141,1,1,7,2,2,0,0
1780397305.2089,1780397305.20855,52.514684173834,13.3228961625137,20.838278,65.61544,33.65545,33.65545,0.61299187,0.40420997,24.60141,1,1,7,2,2,0,0
1780397305.40939,1780397305.40905,52.5146830282731,13.3228945277982,20.822401,65.59956,33.65545,33.65545,0.60858035,0.40198585,24.60141,1,1,7,2,2,0,0
1780397305.60989,1780397305.60954,52.5146816607927,13.3228922474739,20.793541,65.5707,33.65545,33.65545,0.60507625,0.3999586,24.60141,1,1,7,2,2,0,0
1780397305.8104,1780397305.81003,52.5146805753805,13.3228900747913,20.820654,65.59782,33.65545,33.65545,0.60217285,0.3955686,24.60141,1,1,7,2,2,0,0
1780397306.01088,1780397306.01052,52.5146793789023,13.322888070023,20.842182,65.61935,33.65545,33.65545,0.5997576,0.39393625,24.60141,1,1,7,2,2,0,0
